[{"name":"고산자연휴양림","possession":"공유림","facility":"숲속의집, 휴양관, 돔하우스, 가족휴양관","address":"전라북도 완주군 고산면 고산휴양림로 246","phone":"063-263-8680","latitude":35.96224205,"longitude":127.2328719,"image":null},
  {"name":"박달재자연휴양림","possession":"공유림","facility":"숲속의집, 산책로등","address":"충청북도 제천시 백운면 금봉로 228","phone":"043-652-0910","latitude":37.14706386,"longitude":128.0457749,"image":null},
  {"name":"함평자연생태공원","possession":"국유림","facility":"과학관, 나비곤충표본전시관, 캠핑트레일러, 반달가슴곰관찰원","address":"전라남도 함평군 대동면 학동로 1398-77","phone":"061-320-2855","latitude":35.13500123,"longitude":126.5056999542,"image":null},
  {"name":"동두천자연휴양림","possession":"공유림","facility":"숲속의집, 야외데크, 잔디광장, 유아숲체험원,","address":"경기도 동두천시 탑동가산로 1","phone":"031-860-3258","latitude":37.88988548,"longitude":127.1371472,"image":null},
  {"name":"수레의산자연휴양림","possession":"공유림","facility":"숙박시설+캠핑장+산책로+화장실 등","address":"충청북도 음성군 생극면 차생로 310-108","phone":"043-878-2013","latitude":37.03888889,"longitude":127.6513842,"image":null},
  {"name":"백야자연휴양림","possession":"공유림","facility":"숙박시설+캠핑장+물놀이장+산책로+화장실 등","address":"충청북도 음성군 금왕읍 백야로 461-97","phone":"043-878-2556","latitude":36.95683951,"longitude":127.6096488,"image":null},
  {"name":"동강전망자연휴양림","possession":"공유림","facility":"오토캠핑장","address":"강원도 정선군 신동읍 동강로 916-212","phone":"070-4225-2336","latitude":37.25962318,"longitude":128.6079002,"image":null},
  {"name":"하추자연휴양림","possession":"공유림","facility":"숲속의집,야영장","address":"강원도 인제군 인제읍 하추로686","phone":"033-461-0056","latitude":38.03534186,"longitude":128.319867,"image":null},
  {"name":"거제자연휴양림","possession":"국유림","facility":"숲속의집 산림문화 휴양관 야영데크 숲속수련장","address":"경상남도 거제시 동부면 거제중앙로 325","phone":"055-639-8115","latitude":34.7856966,"longitude":128.625968,"image":null},
  {"name":"아세안자연휴양림","possession":"공유림","facility":"숲속의집14동, 안내센터, 다목적광장 등","address":"경기도 양주시 백석읍 기산로 472","phone":"031-871-2796","latitude":37.77382293,"longitude":126.9421758,"image":null},
  {"name":"장흥 자연휴양림","possession":"사유림","facility":"물놀이장, 썰매장","address":"경기도 양주시 장흥면 권율로 594","phone":"080-233-7766","latitude":37.75816692,"longitude":126.9685293,"image":null},
  {"name":"좌구산자연휴양림","possession":"공유림","facility":"숲속의 집 황토방 별무리하우스 병영하우스 좌구산 숲 명상의 집 줄타기 썰매장 숲속모험시설 천문대 등","address":"충청북도 증평군 증평읍 솟점말길 107","phone":"043-835-4552","latitude":36.70556821,"longitude":127.6511216,"image":null},
  {"name":"생거진천자연휴양림","possession":"공유림","facility":"산림문화휴양관 숲속의집 연립동 야영센터 관리사무소","address":"충청북도 진천군 백곡면 명암길 435-135","phone":"043-539-3551","latitude":36.92399609,"longitude":127.3902346,"image":null},
  {"name":"성불산자연휴양림","possession":"공유림","facility":"숲속의집.산림문화휴양관.숲관광메가시티.생태체험관.한옥체험관.생태공원.미선향테마파크 유아숲체험원","address":"충청북도 괴산군 괴산읍 충민로기곡길 78","phone":"043-830-2679","latitude":36.80804701,"longitude":127.8467688,"image":null},
  {"name":"수레의산자연휴양림","possession":"공유림","facility":"숙박시설 캠핑장 물놀이장 산책로 화장실 등","address":"충청북도 음성군 생극면 차생로 310-108","phone":"043-878-2013","latitude":37.03888915,"longitude":127.6513855,"image":null},
  {"name":"송정자연휴양림","possession":"공유림","facility":"숲속의집, 산림휴양관, 야영장, 바비큐장, 숲만남의광장 등","address":"경상북도 칠곡군 석적읍 반계3길 88","phone":"054-979-6600","latitude":36.02333243,"longitude":128.4416406,"image":null},
  {"name":"계명산자연휴양림","possession":"공유림","facility":"숲속의 집, 황토방, 산림휴양관, 복합산림휴양관, 산막, 야영장 등","address":"경상북도 안동시 길안면 고란길 207-99","phone":"054-850-4700","latitude":36.41012056,"longitude":128.9465131,"image":null},
  {"name":"백운산자연휴양림","possession":"공유림","facility":"숙박동 목재문화체험장 황토길 산책로 야영장 운동장 등","address":"전라남도 광양시 옥룡면 백계로 337","phone":"061-797-2655","latitude":35.05164287,"longitude":127.5985311,"image":null},
  {"name":"생거진천자연휴양림","possession":"공유림","facility":"산림문화휴양관, 숲속의집12동, 연립동, 야영센터, 관리사무소","address":"충청북도 진천군 백곡면 명암길 435-135","phone":"043-539-3552","latitude":36.923988,"longitude":127.3902017,"image":null},
  {"name":"불정자연휴양림","possession":"공유림","facility":"숲속의집, 카라반, 야영장, 물놀이장, 야영데크","address":"경상북도 문경시 불정길 180","phone":"054-553-9443","latitude":36.62128207,"longitude":128.1365074,"image":null},
  {"name":"대야산자연휴양림","possession":"국유림","facility":"산림문화휴양관, 연립동, 야영시설","address":"경상북도 문경시 가은읍 용추길 31-35","phone":"054-571-7181","latitude":36.67090364,"longitude":127.9619774,"image":null},
  {"name":"남원자연휴양림","possession":"사유림","facility":"야영장 등","address":"전라북도 남원시 보산로 228","phone":"063-633-5333","latitude":35.458117,"longitude":127.415508,"image":null},
  {"name":"데미샘자연휴양림","possession":"공유림","facility":"휴양관,숲속의집, 숲문화마당, 명상의숲 등","address":"전라북도 진안군 백운면 데미샘 1길 172","phone":"063-290-6993","latitude":35.6569937975,"longitude":127.4610401599,"image":null},
  {"name":"운장산자연휴양림","possession":"국유림","facility":"숲속의집,연립동, 산림문화휴양관, 숲속수련관","address":"전라북도 진안군 정천면 휴양림길 77","phone":"063-432-1193","latitude":35.8992460670,"longitude":127.4211095994,"image":null},
  {"name":"평창자연휴양림","possession":"공유림","facility":"숙박동+세미나실+운동장+산책로","address":"강원도 평창군 봉평면 팔송로 285","phone":"033-339-9028","latitude":37.609548,"longitude":128.303521,"image":null},
  {"name":"거창 항노화 힐링랜드","possession":"공유림","facility":"출렁다리+산림휴양관+숲속의집+산림치유센터+자생식물원","address":"경상남도 거창군 가조면 의상봉길 834","phone":"055-940-7930","latitude":35.73662049,"longitude":128.0408983,"image":null},
  {"name":"문수산자연휴양림","possession":"국유림","facility":"산림휴양관, 묵상의집, 숲속의집, 야영데크 등","address":"경상북도 봉화군 봉성면 시거리길 378","phone":"054-674-3700","latitude":36.950851,"longitude":128.834816,"image":null},
  {"name":"학가산우래자연휴양림","possession":"사유림","facility":"숲속의 집, 산림휴양관 등","address":"경상북도 예천군 보문면 휴양림길 210","phone":"054-652-0114","latitude":36.677929,"longitude":128.592876,"image":null},
  {"name":"양촌자연휴양림","possession":"공유림","facility":"글램핑장(4동)+숲속의집(10동)+휴양관(7실)","address":"충청남도 논산시 양촌면 매죽헌로1723번길 176-23","phone":"041-746-6481","latitude":36.15726044,"longitude":127.2464846,"image":null},
  {"name":"소선암자연휴양림","possession":"공유림","facility":"통나무집, 숲속의집, 산림문화휴양관, 산림복합휴양관, 백두대간 문화휴양관","address":"충청북도 단양군 단성면 대잠2길15","phone":"043-422-7839","latitude":36.9192214181,"longitude":128.3123126642,"image":null},
  {"name":"소백산자연휴양림","possession":"공유림","facility":"숲속의집, 산림문화휴양관, 정감록명당체험마을, 화전민촌","address":"충청북도 단양군 영춘면 하리방터길 180","phone":"043-423-3117","latitude":37.0606929648,"longitude":128.4673083785,"image":null},
  {"name":"데미샘자연휴양림","possession":"공유림","facility":"휴양관, 숲속의집, 숲문화마당, 명상의숲 등","address":"전라북도 진안군 백운면 데미샘 1길 172","phone":"063-290-6992","latitude":35.656988,"longitude":127.461036,"image":null},
  {"name":"안면도자연휴양림","possession":"국유림","facility":"전시관, 수목원, 숲속의집 등","address":"충청남도 태안군 안면읍 안면대로3195-6","phone":"041-674-5019","latitude":36.49670127,"longitude":126.3588291,"image":null},
  {"name":"국립희리산해송자연휴양림","possession":"국유림","facility":"숲속의집,야영장,숲속수련장","address":"충청남도 서천군 종천면 희리산길 206","phone":"041-953-2230","latitude":36.11262716,"longitude":126.664181,"image":null},
  {"name":"금봉자연휴양림","possession":"공유림","facility":"산림휴양관외","address":"경상북도 의성군 옥산면 휴양림길 114","phone":"054-833-0123","latitude":36.3360183,"longitude":128.8807891,"image":null},
  {"name":"용봉산자연휴양림","possession":"공유림","facility":"산림휴양관 숲속의집 산림전시관","address":"충청남도 홍성군 홍북읍 용봉산2길 87","phone":"041-630-1785","latitude":36.64528712,"longitude":126.6566318,"image":null},
  {"name":"춘천숲자연휴양림","possession":"공유림","facility":"숲속의 집 산림휴양관 글램핑장","address":"강원도 춘천시 동산면 종자리로 224-104","phone":"033-264-1156","latitude":37.747732,"longitude":127.742503,"image":null},
  {"name":"망경대산자연휴양림","possession":"국유림","facility":"숲속의집","address":"강원도 영월군 중동면 선도우길 177","phone":"033-375-8765","latitude":37.1838677681,"longitude":128.5934844980,"image":null},
  {"name":"구재봉자연휴양림","possession":"공유림","facility":"휴양관,숲속의집,트리하우스","address":"경상남도 하동군 적량면 중서길 60-81","phone":"070-8855-8010","latitude":35.1289579366,"longitude":127.7440937074,"image":null},
  {"name":"편백자연휴양림","possession":"공유림","facility":"숲속의집","address":"경상남도 하동군 옥종면 위태리 산281-3","phone":"070-8994-0717","latitude":35.1858764,"longitude":127.8484386,"image":null},
  {"name":"비학산자연휴양림","possession":"공유림","facility":"산림휴양관, 숲속의 집, 테라스하우스, 카라반, 야외데크, 생태숲 등","address":"경상북도 포항시 북구 기북면 비학산길 302","phone":"054-252-3275","latitude":36.14703337,"longitude":129.2111071,"image":null},
  {"name":"백아산자연휴양림","possession":"공유림","facility":"족구장,정자,계곡데크","address":"전라남도 화순군 백아면 수양로 353","phone":"061-379-3738","latitude":35.15137582,"longitude":127.1671251,"image":null},
  {"name":"한천자연휴양림","possession":"공유림","facility":"캠핑장,데크,잔디광장, 정자, 물썰매장","address":"전라남도 화순군 한천면 죽헌로 719","phone":"061-379-3734","latitude":34.98834125,"longitude":127.0454803,"image":null},
  {"name":"회문산자연휴양림","possession":"국유림","facility":"숲속의 집+산림문화 휴양관+야영시설","address":"전라북도 순창군 구림면 안심길 295","phone":"063-653-4779","latitude":35.50195867,"longitude":127.1148251,"image":null},
  {"name":"공주산림휴양마을","possession":"공유림","facility":"숲속의집/휴양관/야영장/목재문화체험장","address":"충청남도 공주시 수원지공원길 222","phone":"041-855-0855","latitude":36.42442578,"longitude":127.1193201,"image":null},
  {"name":"숲체원","possession":"국유림","facility":"탐방로, 숙박동, 강의실","address":"강원도 횡성군 둔내면 청태산로 777","phone":"033-340-6300","latitude":37.53722046,"longitude":128.2866886,"image":null},
  {"name":"청태산휴양림","possession":"국유림","facility":"제1산림문화휴양관, 제2산림문화휴양관, 숲속의집, 숲속수련장(중형, 소형), 대형숲속수영장(회의실), 야영장, 인도네시아 전통 전시관, 숲생태체험실, BIY목공교실","address":"강원도 횡성군 둔내면 청태산로 610","phone":"033-343-9707","latitude":37.52907993,"longitude":128.2968658,"image":null},
  {"name":"문수산 산림욕장","possession":"공유림","facility":"숲길,산림욕장","address":"경기도 김포시 월곶면 문수산로 102-38","phone":"031-988-2965","latitude":37.737829,"longitude":126.5308885,"image":null},
  {"name":"충북알프스자연휴양림","possession":"공유림","facility":"숲속의집,세미나실,목공예체험장 등","address":"충청북도 보은군 산외면 속리산로 1880","phone":"043-540-3712","latitude":36.57316547,"longitude":127.7858442,"image":null},
  {"name":"속리산 숲체험휴양마을","possession":"공유림","facility":"한옥마을 ,황토마을, 통나무마을 등","address":"충청북도 보은군 속리산면 속리산로 596","phone":"043-540-3220","latitude":36.49245442,"longitude":127.792472,"image":null},
  {"name":"치악산자연휴양림","possession":"공유림","facility":"숲속의집,주차장,야영장","address":"강원도 원주시 판부면 휴양림길 66","phone":"033-762-8288","latitude":37.255878,"longitude":128.031372,"image":null},
  {"name":"순천자연휴양림","possession":"사유림","facility":"관리사무실 1동, 숙박시설 14동 23실, 캐빈하우스 6동 텐트19면","address":"전라남도 순천시 서면 청소년수련원길 170","phone":"061-749-8948","latitude":35.04388083,"longitude":127.4744949,"image":null},
  {"name":"봉수산자연휴양림","possession":"공유림","facility":"숲속의집,산림문화휴양관","address":"충청남도 예산군 대흥면 임존성길 153","phone":"041-339-8936","latitude":36.59844872,"longitude":126.7808937,"image":null},
  {"name":"화왕산자연휴양림","possession":"공유림","facility":"휴양관+야영데크+바비큐장+숲길","address":"경상남도 창녕군 고암면 청간길 128-126","phone":"055-533-2332","latitude":35.54697823,"longitude":128.5673185,"image":null},
  {"name":"용추자연휴양림","possession":"공유림","facility":"산림문화휴양관, 숲속의집, 취사장, 화장실, 샤워장, 야영장, 관리사무실 등","address":"경상남도 함양군 안의면 용추휴양림길 166","phone":"055-963-8702","latitude":35.6961266,"longitude":127.7578596,"image":null},
  {"name":"산삼자연휴양림","possession":"공유림","facility":"산림문화휴양관, 숲속의집 , 관리사무실 등","address":"경상남도 함양군 서상면 가르내길 202-1","phone":"055-964-9886","latitude":35.69762431,"longitude":127.6584311,"image":null},
  {"name":"송이밸리자연휴양림","possession":"공유림","facility":"송이밸리자연휴양림","address":"강원도 양양군 양양읍 고노동길 98-50","phone":"033-670-2644","latitude":38.05400667,"longitude":128.6214924,"image":null},
  {"name":"운주산승마자연휴양림","possession":"공유림","facility":"숲속의집+산림문화휴양관 등","address":"경상북도 영천시 임고면 승마휴양림길 105","phone":"054-330-6287","latitude":36.03510258,"longitude":128.996734,"image":null},
  {"name":"보현산자연휴양림","possession":"공유림","facility":"숲속의집+산림문화휴양관 등","address":"경상북도 영천시 화북면 배나무정길 334","phone":"054-336-6618","latitude":36.14210706,"longitude":128.9781098,"image":null},
  {"name":"사천 케이블카 자연휴양림","possession":"공유림","facility":"숲속의집+휴양관+야영장+야영센터+어린이 물놀이장+숲놀이터+숲속 산책로","address":"경상남도 사천시 실안길 242-45","phone":"055-835-9524","latitude":34.95016897,"longitude":128.0576108,"image":null},
  {"name":"구수곡자연휴양림","possession":"공유림","facility":"숲속의 집","address":"경상북도 울진군 북면 십이령로 2721","phone":"054-783-2241","latitude":37.0621216154,"longitude":129.2929279338,"image":null},
  {"name":"민주지산자연휴양림","possession":"공유림","facility":"버섯동,야생화동,국악동,식당, 황토방, 황토찝질방, 학습관, 너와집,산림문화휴양관1,2층 세미나실,치유숙소6개소,치유센터,진료동, 치유센터치유동,야외 치유시설, 야영장, 족구장 등","address":"충청북도 영동군 용화면 조동리 민주지산로 60","phone":"043-740-3438","latitude":36.0573434,"longitude":127.8251649,"image":null},
  {"name":"운문산자연휴양림","possession":"국유림","facility":"숲속의집+산림문화휴양관+숲속수련장+야영시설","address":"경상북도 청도군 운문면 운문로 763","phone":"054-373-1327","latitude":35.6483467486,"longitude":129.0262079787,"image":null},
  {"name":"흥림산자연휴양림","possession":"공유림","facility":"산림문화휴양관, 숲속의집","address":"경상북도 영양군 일월면 재일로 2394-70","phone":"054-680-5050","latitude":36.70182591,"longitude":129.1124232,"image":null},
  {"name":"토함산자연휴양림","possession":"공유림","facility":"숲속의집, 화랑관, 야영장, 국학관(세미나실) 등","address":"경상북도 경주시 양북면 불국로 1208-45","phone":"054-750-8700","latitude":35.76191761,"longitude":129.3654772,"image":null},
  {"name":"불갑사 관광휴양단지","possession":"사유림","facility":"관광지,힐링컨벤션센터","address":"전라남도 영광군 불갑면 자비길 51-38","phone":"061-353-4476","latitude":35.202988,"longitude":126.5367799663,"image":null},
  {"name":"한방자연휴양림","possession":"공유림","facility":"숲속의집, 숲속휴양관, 세미나실","address":"경상남도 산청군 금서면 동의보감로555번길 186","phone":"055-970-6951","latitude":35.43403493,"longitude":127.8236813,"image":null},
  {"name":"바라산자연휴양림","possession":"공유림","facility":"숲속의집,야영장,치유의숲,체험의숲,산림문화휴양관","address":"경기도 의왕시 바라산로 84","phone":"031-8086-7482","latitude":37.37310185,"longitude":127.0193147,"image":null},
  {"name":"삼척활기자연휴양림","possession":"사유림","facility":"휴양관(송폭헌), 한옥(방우재), 한옥(세우재),숲속의집(구희당),숲속의집(삼락당)","address":"강원도 삼척시 미로면 준경길 651-43(지번활기리 403-1)","phone":"033-574-0032","latitude":37.38099374,"longitude":129.0601226,"image":null},
  {"name":"간월산자연휴양림","possession":"사유림","facility":"관리실,수영장,연수원","address":"울산광역시 울주군 상북면 작괘로 607-15","phone":"052-263-6644","latitude":35.5670959,"longitude":129.0560416,"image":null},
  {"name":"옥화자연휴양림","possession":"공유림","facility":"숲속의집 산림휴양관 캠핑장 산책로 등","address":"충청북도 청주시 상당구 미원면 운암옥화길 140","phone":"043-270-7381","latitude":36.59895012,"longitude":127.6943716,"image":null},
  {"name":"문성자연휴양림","possession":"공유림","facility":"숲속의집 단체숙소 휴양관 유아숲체험원 목재문화체험장 짚라인 오토캠핑장 산책로 등","address":"충청북도 충주시 노은면 우성1길 191","phone":"043-850-7346","latitude":37.02832602,"longitude":127.7525217,"image":null},
  {"name":"봉황자연휴양림","possession":"공유림","facility":"숲속의집 단체숙소 산책로 등","address":"충청북도 충주시 중앙탑면 수룡봉황길 540","phone":"043-850-7315","latitude":37.05652228,"longitude":127.8297465,"image":null},
  {"name":"대운산자연휴양림","possession":"공유림","facility":"숲속의집, 산림휴양관, 야영데크 등","address":"경상남도 양산시 탑골길 208-124","phone":"055-379-8670","latitude":35.4164113,"longitude":129.2105343,"image":null},
  {"name":"유치자연휴양림","possession":"공유림","facility":"숲속의집, 야영데크, 물놀이장","address":"전라남도 장흥군 유치면 휴양림길 154","phone":"061-863-6350","latitude":34.76806521,"longitude":126.8323492,"image":null},
  {"name":"오도산 자연휴양림","possession":"공유림","facility":"숲속의집+청소년수련관+야영데크+취사장+관리사무소+물놀이장 등","address":"경상남도 합천군 봉산면 오도산휴양로 398","phone":"055-930-3733","latitude":35.66904355,"longitude":128.0538747,"image":null},
  {"name":"장령산자연휴양림","possession":"공유림","facility":"숲속의집,산림문화휴양관,휴-포레스트,야영장,야외물놀이장,치유의 숲 등","address":"충청북도 옥천군 군서면 장령산로 519","phone":"043-730-3491","latitude":36.24486737,"longitude":127.5547497,"image":null},
  {"name":"주작산자연휴양림","possession":"공유림","facility":"휴양관+숲속의집+세미나실 등","address":"전라남도 강진군 신전면 주작산길 262","phone":"061-430-3306","latitude":34.5172932,"longitude":126.6989685,"image":null},
  {"name":"옥성자연휴양림","possession":"공유림","facility":"숲속의집, 산림문화휴양관, 물놀이장, 산책로, 유아숲체험원","address":"경상북도 구미시 옥성면 휴양림길 150","phone":"054-480-2082","latitude":36.27907203,"longitude":128.2844292,"image":null},
  {"name":"서귀포자연휴양림","possession":"국유림","facility":"숲속의집+산림휴양관+세미나실+야영장+생태탐방코스","address":"제주특별자치도 서귀포시 1100로 882 (대포동)","phone":"064-738-4544","latitude":33.31150025,"longitude":126.458761,"image":null},
  {"name":"붉은오름자연휴양림","possession":"공유림","facility":"숲속의집+산림문화휴양관+세미나실+오름등반로+야외공연장","address":"제주특별자치도 서귀포시 표선면 남조로 1487-73","phone":"064-782-9171","latitude":33.40142958,"longitude":126.6756716,"image":null},
  {"name":"서귀포 치유의 숲","possession":"공유림","facility":"치유숲길","address":"제주특별자치도 서귀포시 산록남로 2271","phone":"064-760-3067","latitude":33.29194197,"longitude":126.5279022642,"image":null},
  {"name":"세심자연휴양림","possession":"국유림","facility":"숲속의집","address":"전라북도 임실군 삼계면 임삼로 485","phone":"063-644-4611","latitude":35.514241,"longitude":127.240066,"image":null},
  {"name":"구름산산림욕장","possession":"국유림","facility":"피크닉장, 황토길, 세족장, 야외소공연장, 놀이시설","address":"경기도 광명시 하안동 산141-7","phone":"02-2680-2377","latitude":37.454013,"longitude":126.876365,"image":null},
  {"name":"여수봉황산자연휴양림","possession":"공유림","facility":"숲속의집,야영장 등","address":"전라남도 여수시 돌산읍 대복길160","phone":"061-643-9180","latitude":34.6147023710,"longitude":127.7617998912,"image":null},
  {"name":"용인자연휴양림","possession":"공유림","facility":"숲속의집, 숲속체험관, 목조주택, 생태습지, 야영장, 잔디광장, 짚라인, 목재문화체험관 등","address":"경기도 용인시 처인구 모현면 초부로 220","phone":"031-336-0040","latitude":37.314713,"longitude":127.265315,"image":null},
  {"name":"광치자연휴양림","possession":"공유림","facility":"휴양관, 숲속의집, 숲속카페, 트리하우스,","address":"강원도 양구군 남면 광치령로 1794번길 265","phone":"033-482-3115","latitude":38.143507,"longitude":128.071262,"image":null},
  {"name":"천보산자연휴양림","possession":"공유림","facility":"숲속의집, 휴양관, 야영장 등","address":"경기도 포천시 원동교길 309","phone":"031-538-3554","latitude":37.85576406,"longitude":127.1190897,"image":null},
  {"name":"국망봉자연휴양림","possession":"사유림","facility":"통나무 집, 캠핑장 등","address":"경기도 포천시 이동면 늠바위길 207-28","phone":"031-532-0014","latitude":38.02891868,"longitude":127.3962681,"image":null},
  {"name":"태학산자연휴양림","possession":"공유림","facility":"숲속의집,잔디광장,숲속공연장 등","address":"충청남도 천안시 동남구 풍세면 휴양림길 127","phone":"041-529-5108","latitude":36.72734819,"longitude":127.0903273,"image":null},
  {"name":"고대산자연휴양림","possession":"국유림","facility":"숲속의집 14동14실산림휴양관 1동2층6실숲속수련원 1동1실방문자센터 1동2층야영장데크 20개소","address":"경기도 연천군 신서면 고대산길 84-79","phone":"031-834-2200","latitude":38.21125391,"longitude":127.1507058,"image":null},
  {"name":"미숭산자연휴양림","possession":"공유림","facility":"숲속의집, 산림문화휴양관","address":"경상북도 고령군 대가야읍 낫질로 672-99","phone":"054-950-7407","latitude":35.75077545,"longitude":128.2028394,"image":null},
  {"name":"제암산자연휴양림","possession":"공유림","facility":"숙박,야영장,물놀이터,더늠길,숲속교육관,몽골텐트,족구장데크,모험시설","address":"전라남도 보성군 웅치면 대산길 330","phone":"061-850-8708","latitude":34.70050454,"longitude":126.9855053,"image":null},
  {"name":"금산산림문화타운","possession":"공유림","facility":"숲속의집, 생태체험학습장, 야영장, 캠핑장 등","address":"충청남도 금산군 남이면 느티골길 200","phone":"041-753-5706","latitude":36.06776064,"longitude":127.3690934,"image":null},
  {"name":"진산자연휴양림","possession":"사유림","facility":"숲속의집, 산책로, 캠핑장, 글램핑장, 짚핑","address":"충청남도 금산군 진산면 대둔산로 6","phone":"041-753-4242","latitude":36.12303243,"longitude":127.3441498,"image":null},
  {"name":"서대산약용자연휴양림","possession":"사유림","facility":"산야초체험장, 산약초음식점,숲속의집","address":"충청남도 금산군 추부면 홍골1길 132","phone":"041-753-2222","latitude":36.22268671,"longitude":127.5258197,"image":null},
  {"name":"심천치유자연휴양림","possession":"사유림","facility":"숲속의집, 야영장, 캠핑장 등","address":"충청남도 금산군 남일면 신동길 239","phone":"041-752-8300","latitude":35.99504733,"longitude":127.4849511,"image":null},
  {"name":"태백고원자연휴양림","possession":"국유림","facility":"산림문화휴양관, 숲속의 집 , 야영장","address":"강원도 태백시 머리골길153","phone":"033-550-2849","latitude":37.12357654,"longitude":129.0603832,"image":null},
  {"name":"성주봉자연휴양림","possession":"공유림","facility":"숲속의집산림휴양관산림수련관야영장","address":"경상북도 상주시 은척면 성주봉로 3","phone":"054-541-6512","latitude":36.5335984395,"longitude":128.0407595461,"image":null},
  {"name":"독용산성 자연휴양림","possession":"공유림","facility":"숲속휴양관, 휴양관, 숲속의집, 관리사무소, 야외화장실 등","address":"경상북도 성주군 금수면 사더래길 144","phone":"054-930-8401","latitude":35.9063679487,"longitude":128.1344114728,"image":null},
  {"name":"가리산자연휴양림","possession":"공유림","facility":"관리동사무소 1동, 매표소 1동방갈로 10동(2.5평형) 산림문화휴양관 1동(9실)풋살장 1면다목적 광장 1개소매점(휴게소) 1동  화장실 7동공동취사장 1개소 주차장 1개소(95면)샤워장 1개소 야영데크 38면(28/8㎡,10/13㎡)","address":"강원도 홍천군 두촌면 가리산길 426","phone":"033-435-6035","latitude":37.865235,"longitude":127.9824687,"image":null},
  {"name":"초록산산림욕장","possession":"공유림","facility":"산림욕장, 등산로, 유아숲체험장","address":"경기도 화성시 양감면 사창리 810-9","phone":"031-5189-2344","latitude":37.09236517,"longitude":126.9562449,"image":null},
  {"name":"서봉산산림욕장","possession":"사유림","facility":"산림욕장, 등산로, 유아숲체험장","address":"경기도 화성시 정남면 문학리 산120-1","phone":"031-5189-2344","latitude":37.1581905169,"longitude":126.9557910745,"image":null},
  {"name":"구례산수유자연휴양림","possession":"공유림","facility":"산림휴양관, 숲속의 집","address":"전라남도 구례군 산동면 정산길 251","phone":"061-780-2897","latitude":35.30090353,"longitude":127.4626987,"image":null},
  {"name":"팔영산자연휴양림","possession":"공유림","facility":"숲속의집 12동, 산림문화휴양관 1동","address":"전라남도 고흥군 영남면 팔영로 1347-418","phone":"061-830-5386","latitude":34.62133127,"longitude":127.4401371,"image":null},
  {"name":"두루웰자연휴양림","possession":"공유림","facility":"숲속의집, 트리하우스, 캠핑장","address":"강원도 철원군 갈말읍 지경1길 69","phone":"033-450-5198","latitude":38.227936,"longitude":127.353297,"image":null},
  {"name":"신어산 산림욕장","possession":"사유림","facility":"산림욕로, 등산로 등","address":"경상남도 김해시 신어산길 169","phone":"","latitude":35.26938553,"longitude":128.91010150,"image":null},
  {"name":"성불산자연휴양림","possession":"공유림","facility":"숲속의집A, 숲속의집B, 산림문화휴양관,숲관광메가시티,생태숲학습관,한옥체험관,생태공원,미선향테마파크무인카페, 수석전시관 등","address":"충청북도 괴산군 괴산읍 충민로기곡길 78","phone":"043-830-2679","latitude":36.8080470124,"longitude":127.8467687642,"image":null},
  {"name":"양을산산림욕장","possession":"공유림","facility":"유아숲체험원, 화장실, 생태학습장, 실내교육장","address":"전라남도 목포시 상동 산34-3","phone":"061-270-8178","latitude":34.8213604,"longitude":126.4075568,"image":null},
  {"name":"좌구산자연휴양림","possession":"공유림","facility":"숲속의 집/ 황토집/ 별무리하우스/ 병영하우스/ 줄타기/ 썰매장/ 숲속모험시설/ 좌구산 숲 명상의 집/ 명상구름다리/ 좌구산천문대 등","address":"충청북도 증평군 증평읍 솟점말길 107","phone":"043-835-4551","latitude":36.7055680385,"longitude":127.6511206314,"image":null},
  {"name":"비슬산자연휴양림","possession":"공유림","facility":"숲속의집,통나무집,야영장,반딧불이전기차등","address":"대구광역시 달성군 유가읍 일연선사길 99","phone":"053-659-4400","latitude":35.69001083,"longitude":128.5129017,"image":null},
  {"name":"화원자연휴양림","possession":"공유림","facility":"숲속의집,산림문화휴양관,산림욕장,전망데크등","address":"대구광역시 달성군 화원읍 화원휴양림길 126","phone":"053-659-4455","latitude":35.77179173,"longitude":128.5367385,"image":null},
  {"name":"만수산자연휴양림","possession":"공유림","facility":"숲속의집","address":"충청남도 부여군 외산면 휴양로 107","phone":"041-832-6561","latitude":36.33854208,"longitude":126.7119325,"image":null},
  {"name":"서운산자연휴양림","possession":"공유림","facility":"숲속의집, 오토캠핑장, 야영장, 카라반","address":"경기도 안성시 금광면 배티로 185-39","phone":"031-678-2913","latitude":36.94238317,"longitude":127.313722,"image":null},
  {"name":"영인산자연휴양림","possession":"공유림","facility":"숲속의집, 야영장,어드벤쳐시설","address":"충청남도 아산시 영인면 아산온천로 16-26","phone":"041-538-1958","latitude":36.84059456,"longitude":126.9500195,"image":null},
  {"name":"만인산자연휴양림","possession":"공유림","facility":"숲속교실,야외무대,목공체험장","address":"대전광역시 동구 산내로 106","phone":"042-270-8655","latitude":36.2021806,"longitude":127.4551104,"image":null},
  {"name":"장태산자연휴양림","possession":"공유림","facility":"생태연못,교과서식물원,산림문화휴양관","address":"대전광역시 서구 장안로 461","phone":"042-270-7883","latitude":36.21596742,"longitude":127.3412777,"image":null},
  {"name":"계명산자연휴양림","possession":"공유림","facility":"숲속의집 단체숙소 연립동 치유센터 산책로 등","address":"충청북도 충주시 충주호수로 1170","phone":"043-850-7313","latitude":36.97931793,"longitude":127.9950865,"image":null},
  {"name":"박달재자연휴양림","possession":"공유림","facility":"숲속의집 산책로등","address":"충청북도 제천시 백운면 금봉로 223","phone":"043-641-6527","latitude":37.14806356,"longitude":128.045293,"image":null},
  {"name":"옥전자연휴양림","possession":"공유림","facility":"숲속의 집 농산물판매장 등","address":"충청북도 제천시 봉양읍 옥전길 195","phone":"043-641-6527","latitude":37.174689,"longitude":128.089444,"image":null},
  {"name":"충북알프스자연휴양림","possession":"공유림","facility":"숲속의집세미나실목공예체험장 등","address":"충청북도 보은군 산외면 속리산로 1880","phone":"043-543-1472","latitude":36.57319259,"longitude":127.7858718,"image":null},
  {"name":"속리산숲체험휴양마을","possession":"공유림","facility":"숲속의집 방문자종합센터 수영장 찜질방 식당 산책로 등","address":"충청북도 보은군 속리산면 속리산로 596","phone":"043-540-3220","latitude":36.49245548,"longitude":127.7924743,"image":null},
  {"name":"장령산자연휴양림","possession":"공유림","facility":"숲속의집산림문화휴양관야영장야외물놀이장 등","address":"충청북도 옥천군 군서면 장령산로 519","phone":"043-730-3491","latitude":36.24486737,"longitude":127.5547497,"image":null},
  {"name":"민주지산자연휴양림","possession":"공유림","facility":"숲속의집 식당 황토찜질방 학습관 산림문화휴양관 치유센터 야영장 족구장 등","address":"충청북도 영동군 용화면 휴양림길 60","phone":"043-740-3437","latitude":36.05313182,"longitude":127.8243888,"image":null},
  {"name":"남해편백자연휴양림","possession":"국유림","facility":"생태숲,숲속의집 등","address":"경상남도 남해군 삼동면 금암로 658","phone":"055-867-7881","latitude":34.75216391,"longitude":128.0201316,"image":null},
  {"name":"칼봉산자연휴양림","possession":"공유림","facility":"숲속의집, 산림휴양관, 생태숲, 생태체험학습장, 야영장 등","address":"경기도 가평군 가평읍 경반안로 454","phone":"031-8078-8061","latitude":37.83611811,"longitude":127.4653871,"image":null},
  {"name":"변산자연휴양림","possession":"국유림","facility":"숲속의집, 휴양관, 체험교실, 물놀이장(현재 미운영)","address":"전라북도 부안군 변산면 변산로 3768","phone":"063-581-9977","latitude":35.58287781,"longitude":126.523728,"image":null},
  {"name":"청송자연휴양림","possession":"공유림","facility":"숲속의 집, 연수의집","address":"경상북도 청송군 부남면 청송로 3478-96","phone":"054-872-3163","latitude":36.3179023,"longitude":129.0537598,"image":null},
  {"name":"신안자연휴양림","possession":"국유림","facility":"산림문화휴양관, 캠핑장, 관리동, 취사장, 샤워장, 테마공원","address":"전라남도 신안군 자은면 자은서부2길 508-77","phone":"061-240-3265","latitude":34.8793261192,"longitude":125.9961150082,"image":null},
  {"name":"군위장곡자연휴양림","possession":"공유림","facility":"숲속의집, 종합산막, 산림문화휴양관, 산림생태험학습관, 자생식물원, 물놀이장","address":"경상북도 군위군 고로면 장곡휴양림길 195","phone":"054-380-6317","latitude":36.1305922660,"longitude":128.8376371675,"image":null},
  {"name":"거제자연휴양림","possession":"공유림","facility":"숲속의집,휴양관","address":"경상남도 거제시 동부면 거제중앙로 325","phone":"055-639-8115","latitude":34.78569918,"longitude":128.6259431,"image":null},
  {"name":"대운산자연휴양림(양산)","possession":"공유림","facility":"숲속의집,휴양관","address":"경상남도 양산시 탑골길 208-124","phone":"055-379-8670","latitude":35.4136954,"longitude":129.2117158,"image":null},
  {"name":"화왕산자연휴양림(창녕)","possession":"공유림","facility":"숲속의집,휴양관","address":"경상남도 창녕군 고암면 청간길 128-126","phone":"055-533-2332","latitude":35.54693079,"longitude":128.5673145,"image":null},
  {"name":"구재봉자연휴양림(하동)","possession":"공유림","facility":"숲속의집,휴양관","address":"경상남도하동군 적량면 중서길 60-81","phone":"070-8855-8011","latitude":35.12895794,"longitude":127.7440937,"image":null},
  {"name":"하동편백자연휴양림","possession":"공유림","facility":"숲속의집,휴양관","address":"경상남도 하동군 옥종면 돌고지로 1088-51","phone":"070-8994-0717","latitude":35.18675022,"longitude":127.8421218,"image":null},
  {"name":"한방자연휴양림(산청)","possession":"공유림","facility":"숲속의집,휴양관","address":"경상남도 산청군 금서면 동의보감로 555번길 186","phone":"055-970-6951","latitude":35.43403584,"longitude":127.8236808,"image":null},
  {"name":"용추자연휴양림(함양)","possession":"공유림","facility":"숲속의집,휴양관","address":"경상남도 함양군 안의면 상원리 1155-1","phone":"055-963-8702","latitude":35.70378274,"longitude":127.7539398,"image":null},
  {"name":"대봉산자연휴양림(함양)","possession":"공유림","facility":"숲속의집,휴양관","address":"경상남도 함양군 병곡면 병곡지곡로 333","phone":"055-964-1090","latitude":35.57794015,"longitude":127.7150289,"image":null},
  {"name":"산삼자연휴양림(함양)","possession":"공유림","facility":"숲속의집,휴양관","address":"경상남도 함양군 서상면 가르내길 202-1","phone":"055-964-9886","latitude":35.69762459,"longitude":127.6584297,"image":null},
  {"name":"금원산자연휴양림(거창)","possession":"공유림","facility":"숲속의집,휴양관","address":"경상남도 거창군 위천면 금원산길 471-27","phone":"055-254-3971","latitude":35.72617571,"longitude":127.795727,"image":null},
  {"name":"오도산자연휴양림(합천)","possession":"공유림","facility":"숲속의집,휴양관","address":"경상남도 합천군 봉산면 오도산휴양로 398","phone":"055-930-3733","latitude":35.66904518,"longitude":128.0538745,"image":null},
  {"name":"남해편백자연휴양림","possession":"국유림","facility":"숲속의집,휴양관","address":"경상남도 남해군 삼동면 금암로 658","phone":"055-867-7881","latitude":34.75216391,"longitude":128.0201321,"image":null},
  {"name":"지리산자연휴양림(함양)","possession":"국유림","facility":"숲속의집,휴양관","address":"경상남도 함양군 마천면 음정길 152","phone":"055-963-8133","latitude":35.34644465,"longitude":127.6430043,"image":null},
  {"name":"원동자연휴양림(양산)","possession":"사유림","facility":"오토캠핑장","address":"경상남도 양산시 원동면 늘밭로 64","phone":"0507-1401-583","latitude":35.39881801,"longitude":128.9348445,"image":null},
  {"name":"덕원자연휴양림(하동)","possession":"사유림","facility":"숲속의집,휴양관","address":"경상남도 하동군 옥종면 옥단로 1443-327","phone":"055-884-0650","latitude":35.22915471,"longitude":127.8552761,"image":null},
  {"name":"지리산마더힐자연휴양림(산청)","possession":"사유림","facility":"숲속의집,휴양관","address":"경상남도 산청군 시천면 지리산대로 496-101","phone":"055-974-2757","latitude":35.2886177,"longitude":127.7507425,"image":null},
  {"name":"반딧불 자연휴양림","possession":"공유림","facility":"통나무집+목교+평상+평의자","address":"전라북도 무주군 설천면 청량리 산 77","phone":"063-320-5666","latitude":36.01035711,"longitude":127.7581607,"image":null},
  {"name":"강릉임해자연휴양림","possession":"공유림","facility":"숙박동(하늘동+구름동+바다동+숲속동)+숲속의집","address":"강원도 강릉시 강동면 율곡로 1715-85","phone":"033-644-9483","latitude":37.71856556,"longitude":128.9985453,"image":null},
  {"name":"천천와룡자연휴양림","possession":"국유림","facility":"숲속의집, 야영장, 물놀이장, 산림욕장 등","address":"전라북도 장수군 천천면 비룡로 632","phone":"063-350-2477","latitude":35.67621776,"longitude":127.4772192,"image":null},
  {"name":"방화동자연휴양림","possession":"국유림","facility":"숲속의집, 산림욕장, 인공폭포 등","address":"전라북도 장수군 번암면 방화동로 778","phone":"063-350-2475","latitude":35.59064179,"longitude":127.5268761,"image":null},
  {"name":"팔공산금화자연휴양림","possession":"공유림","facility":"숲속의집, 카라반, 교육관, 휴양관, 야영데크","address":"경상북도 칠곡군 가산면 가산로 323","phone":"054-971-1551","latitude":36.05171899,"longitude":128.5553512,"image":null},
  {"name":"안동호반자연휴양림","possession":"공유림","facility":"호반하우스,산림휴양관,숲속의집,전통가옥","address":"경상북도 안동시 도산면 월천길 100-7","phone":"054-855-3371","latitude":36.70343807,"longitude":128.8288547,"image":null},
  {"name":"수도산 자연휴양림","possession":"공유림","facility":"숲속의집, 힐하우스. 숲속휴양관, 숲속수련관","address":"경상북도 김천시 대덕면 증산로 326-71","phone":"054-435-5128","latitude":35.8918024,"longitude":127.9838463,"image":null},
  {"name":"입화산 자연휴양림","possession":"공유림","facility":"오토캠핑장, 이동식주택(카라반), 산림욕장, 숲속도서관, 네이처스포츠, 모노레일","address":"울산광역시 중구 다운동 산47-1번지","phone":"052-290-4410","latitude":35.578739,"longitude":129.279479,"image":null},
  {"name":"흥부골자연휴양림","possession":"공유림","facility":"숲속의집, 야영장 등","address":"전라북도 남원시 인월면 구인원길 125","phone":"063-636-4032","latitude":35.450932,"longitude":127.590258,"image":null},
  {"name":"금강자연휴양림","possession":"공유림","facility":"숲속의 집,휴양관","address":"세종특별자치시 금남면 산림박물관길110","phone":"041-635-7400","latitude":36.43769938,"longitude":127.2327429,"image":null},
  {"name":"절물자연휴양림","possession":"국유림","facility":"휴양림.수련장.숙박등","address":"제주특별자치도 제주시 명림로 584","phone":"064-728-1510","latitude":33.44004881,"longitude":126.6252034,"image":null},
  {"name":"교래자연휴양림","possession":"공유림","facility":"휴양림.숙박.공연장등","address":"제주특별자치도 제주시 조천읍 남조로 2023","phone":"064-783-7482","latitude":33.45136376,"longitude":126.6567109,"image":null},
  {"name":"흑석산자연휴양림","possession":"공유림","facility":"숲속의집(객식), 유아숲체험원, 족욕장, 수변쉼터 등","address":"전라남도 해남군 계곡면 산골길 306","phone":"061-530-5738","latitude":34.6709346791,"longitude":126.6169966726,"image":null},
  {"name":"백야자연휴양림","possession":"공유림","facility":"숙박시설 캠핑장 물놀이장 산책로 화장실 등","address":"충청북도 음성군 금왕읍 백야로 461-97","phone":"043-878-2556","latitude":36.95683852,"longitude":127.6096498,"image":null},
  {"name":"소선암자연휴양림","possession":"공유림","facility":"통나무집 숲속의집 산림문화휴양관 산림복합휴양관","address":"충청북도 단양군 단성면 대잠2길 15","phone":"043-422-7839","latitude":36.91922142,"longitude":128.3123127,"image":null},
  {"name":"소백산자연휴양림","possession":"공유림","facility":"화전민촌 정감록 명당체험마을 숲속의집 산림문화휴양관 세미나실 네트어드벤쳐 승마장 전망대 전시실 그라운드골프장 북카페 산책로","address":"충청북도 단양군 영춘면 하리방터길 180","phone":"043-423-3117","latitude":37.06069296,"longitude":128.4673084,"image":null},
  {"name":"조령산자연휴양림","possession":"공유림","facility":"숲속의집 복합휴양관 백두대간 생태교육장 옛길 물놀이장 숲속놀이터 산책로 등","address":"충청북도 괴산군 연풍면 새재로 1795","phone":"043-833-7994","latitude":36.81234006,"longitude":128.0462438,"image":null},
  {"name":"용문산자연휴양림","possession":"공유림","facility":"행복마루, 솔마루, 하늘마루, 산림휴양관,숲속의집,생태행복관,야영데크 등","address":"경기도 양평군 양평읍 약수사길 78-14","phone":"031-775-4005","latitude":37.516048,"longitude":127.519421,"image":null},
  {"name":"양평쉬자파크","possession":"공유림","facility":"치유의숲,치유의집,초가원,산림교육센터, 치유센터,공원관리소, 유아숲체험원,까페동 등","address":"경기도 양평군 양평읍 쉬자파크길 193","phone":"031-770-1009","latitude":37.511222,"longitude":127.533196,"image":null},
  {"name":"설매재자연휴양림","possession":"사유림","facility":"숲속의집,산림휴양관,이벤트홀, 데크야영 등","address":"경기도 양평군 옥천면 용천로 510","phone":"031-772-5955","latitude":37.556802,"longitude":127.509356,"image":null},
  {"name":"축령산","possession":"국유림","facility":"치유의숲 안내센터, 전망대 등","address":"전라남도 장성군 북이면 추암로 555","phone":"061-393-1777","latitude":35.360934,"longitude":126.728553,"image":null},
  {"name":"방장산자연휴양림","possession":"국유림","facility":"숲속의 집, 산림문화휴양관, 세미나실, 숲속공예마을(체험) 등","address":"전라남도 장성군 북이면 방장로 353","phone":"061-394-5523","latitude":35.44405218,"longitude":126.7514053,"image":null},
  {"name":"성주산자연휴양림","possession":"공유림","facility":"성주산자연휴양림","address":"충청남도 보령시 성주면 화장골길 57-228","phone":"041-934-7133","latitude":36.33256882,"longitude":126.6639659,"image":null},
  {"name":"횡성자연휴양림","possession":"사유림","facility":"숲속의집, 산림문화휴양관","address":"강원도 횡성군 갑천면 정포로 430번길 113","phone":"033-343-3392","latitude":37.53904383,"longitude":128.1118525,"image":null},
  {"name":"주천강자연휴양림","possession":"사유림","facility":"숲속마을, 산골마을, 강변마을, 숲속학교, 황토별장","address":"강원도 횡성군 둔내면 강변로 영랑6길 115","phone":"033-345-7575","latitude":37.4606019,"longitude":128.2034233,"image":null},
  {"name":"대봉산자연휴양림","possession":"공유림","facility":"산림문화휴양관, 숲속의집, 관리사무실, 해피쿠킹장 등","address":"경상남도 함양군 병곡면 병곡지곡로 333","phone":"055-964-1090","latitude":35.57794141,"longitude":127.7150294,"image":null},
  {"name":"문성자연휴양림","possession":"공유림","facility":"숲속의집, 단체숙소","address":"충청북도 충주시 노은면 우성1길 191","phone":"043-870-7910","latitude":37.02832486,"longitude":127.7525206,"image":null},
  {"name":"봉황자연휴양림","possession":"공유림","facility":"숲속의집, 단체숙소","address":"충청북도 충주시 중앙탑면 수룡봉황길540","phone":"043-870-7920","latitude":37.05652102,"longitude":127.8297473,"image":null},
  {"name":"계명산자연휴양림","possession":"공유림","facility":"숲속의집, 단체숙소","address":"충청북도 충주시 충주호수로 1170","phone":"043-840-7930","latitude":36.9793629,"longitude":127.9950872,"image":null},
  {"name":"강화군 석모도자연휴양림","possession":"공유림","facility":"숲속의 집, 산림문화휴양관, 족구장 등","address":"인천광역시 강화군 삼산면 삼산서로 39-75","phone":"032-932-1100","latitude":37.69963904,"longitude":126.3154373,"image":null},
  {"name":"강화군 티앤림 자연휴양림","possession":"사유림","facility":"숲속의집, 집라인, 어드벤쳐","address":"인천광역시 강화군 불은면 중앙로 546-34","phone":"032-937-7481","latitude":37.71482742,"longitude":126.453839,"image":null},
  {"name":"칠갑산자연휴양림","possession":"공유림","facility":"숲속의 집+산림문화 휴양관+원두막+기타시설 등","address":"충청남도 청양군 대치면 칠갑산로 668-103","phone":"041-940-2429","latitude":36.431589,"longitude":126.8438227,"image":null},
  {"name":"거제자연휴양림","possession":"공유림","facility":"숲속의집+ 산림문화휴양관","address":"경상남도 거제시 동부면 거제중앙로 325","phone":"055-639-8115","latitude":34.78569918,"longitude":128.6259431,"image":null}]